[

  {
    "name": "AUBERGE'INN",
    "lat": "44.848903",
    "lon": "-0.593294",
    "link": "http://www.resto.fr/restaurant/bordeaux/33000-bordeaux/14392-aubergeinn/"
  },
  {
    "name": "LE BOUCHON",
    "lat": "43.71153",
    "lon": "7.290676",
    "link": "http://www.resto.fr/restaurant/nice/06000-nice/31441-le-bouchon/"
  },
  {
    "name": "LA CROIX D'OR",
    "lat": "49.1559345",
    "lon": "5.8853383",
    "link": "http://www.resto.fr/restaurant/54800-jarny/19956-la-croix-dor/"
  },
  {
    "name": "LA GRANDE BOUFFE",
    "lat": "43.2187102",
    "lon": "2.3543683",
    "link": "http://www.resto.fr/restaurant/11000-carcassonne/47251-la-grande-bouffe/"
  },
  {
    "name": "L'ILE DU METS",
    "lat": "46.2410636",
    "lon": "7.2904845",
    "link": "http://www.resto.fr/restaurant/35000-rennes/36847-lile-du-mets/"
  },
  {
    "name": "GRAINE DE GOURMANDISE",
    "lat": "48.9473758",
    "lon": "2.1486025",
    "link": "http://www.resto.fr/restaurant/78600-maisons-laffitte/69427-graine-de-gourmandise/"
  },
  {
    "name": "LE CH'TI CHARIVARI",
    "lat": "50.9597675",
    "lon": "1.8489315",
    "link": "http://www.resto.fr/restaurant/62100-calais/18943-le-chti-charivari/"
  },
  {
    "name": "LE TRISKELL",
    "lat": "47.4739796",
    "lon": "-0.5375696",
    "link": "http://www.resto.fr/restaurant/49000-angers/15168-le-triskell/"
  },
  {
    "name": "L'ASTROLABS",
    "lat": "43.13164",
    "lon": "5.99775",
    "link": "http://www.resto.fr/restaurant/06700-saint-laurent-du-var/31247-lastrolabs/"
  },
  {
    "name": "LE VENICIA",
    "lat": "49.3965742",
    "lon": "6.3526372",
    "link": "http://www.resto.fr/restaurant/57480-kerling-les-sierck/73048-le-venicia/"
  },
  {
    "name": "LE CHAROLAIS",
    "lat": "45.767882",
    "lon": "4.856449",
    "link": "http://www.resto.fr/restaurant/lyon/69006-lyon-6eme/11570-le-charolais/"
  },
  {
    "name": "LE DISILCO",
    "lat": "43.6333936",
    "lon": "1.4632848",
    "link": "http://www.resto.fr/restaurant/toulouse/31200-toulouse/36797-le-disilco/"
  },
  {
    "name": "HOTEL-RESTAURANT DU COMMERCE",
    "lat": "43.3690681",
    "lon": "5.6300783",
    "link": "http://www.resto.fr/restaurant/13390-auriol/14026-hotel-restaurant-du-commerce/"
  },
  {
    "name": "LA FERME CHARBONNIERE",
    "lat": "45.874024",
    "lon": "6.184586",
    "link": "http://www.resto.fr/restaurant/74290-menthon-saint-bernard/23733-la-ferme-charbonniere/"
  },
  {
    "name": "LE CAFE DE LA GARE",
    "lat": "47.0827719",
    "lon": "-2.0331421",
    "link": "http://www.resto.fr/restaurant/44760-la-bernerie-en-retz/28961-le-cafe-de-la-gare/"
  },
  {
    "name": "LE PALAIS D'ASIE",
    "lat": "43.257403",
    "lon": "5.3943655",
    "link": "http://www.resto.fr/restaurant/marseille/13008-marseille-8eme/62946-le-palais-dasie/"
  },
  {
    "name": "LE SAINT PIERRE",
    "lat": "49.4976029",
    "lon": "0.1091673",
    "link": "http://www.resto.fr/restaurant/76600-le-havre/25767-le-saint-pierre/"
  },
  {
    "name": "LE MIRAMAR",
    "lat": "43.5328761",
    "lon": "4.1391073",
    "link": "http://www.resto.fr/restaurant/30240-le-grau-du-roi/30680-le-miramar/"
  }
,
  {
    "name": "L'ATELIER GOURMAND",
    "lat": "43.1756712",
    "lon": "5.6105813",
    "link": "http://www.resto.fr/restaurant/13600-la-ciotat/55893-latelier-gourmand/"
  },
  {
    "name": "AUBERGE DES ROY",
    "lat": "49.0116124",
    "lon": "1.3596647",
    "link": "http://www.resto.fr/restaurant/27120-saint-aquilin-de-pacy/26445-auberge-des-roy/"
  },
  {
    "name": "A LA CHARRUE",
    "lat": "48.845689",
    "lon": "7.627898",
    "link": "http://www.resto.fr/restaurant/67350-niedermodern/9742-a-la-charrue/"
  },
  {
    "name": "LE REGENCY",
    "lat": "45.448032",
    "lon": "4.388302",
    "link": "http://www.resto.fr/restaurant/42000-saint-etienne/17410-le-regency/"
  },
  {
    "name": "AU JEU DE PAUME",
    "lat": "44.0970403",
    "lon": "3.0816562",
    "link": "http://www.resto.fr/restaurant/12100-millau/27399-au-jeu-de-paume/"
  },
  {
    "name": "AUBERGE DE LA COMBE GEAY",
    "lat": "47.0500586",
    "lon": "6.6252379",
    "link": "http://www.resto.fr/restaurant/25500-les-fins/75193-auberge-de-la-combe-geay/"
  },
  {
    "name": "LE COMPTOIR DES HALLES",
    "lat": "45.763257",
    "lon": "4.850292",
    "link": "http://www.resto.fr/restaurant/lyon/69003-lyon-3eme/67795-le-comptoir-des-halles/"
  },
  {
    "name": "EYME TRAITEUR",
    "lat": "43.4523599",
    "lon": "5.8602127",
    "link": "http://www.resto.fr/restaurant/83470-saint-maximin-la-sainte-baume/75979-eyme-traiteur/"
  },
  {
    "name": "AUBERGE NEMOZ",
    "lat": "45.2812372",
    "lon": "6.0770912",
    "link": "http://www.resto.fr/restaurant/38580-la-ferriere/24712-auberge-nemoz/"
  },
  {
    "name": "LA RENAISSANCE",
    "lat": "48.804822",
    "lon": "2.498144",
    "link": "http://www.resto.fr/restaurant/94100-saint-maur-des-fosses/18290-la-renaissance/"
  },
  {
    "name": "PROCOPIO ANGELO",
    "lat": "48.861264",
    "lon": "2.343524",
    "link": "http://www.resto.fr/restaurant/paris/75001-paris-1er/22845-procopio-angelo/"
  },
  {
    "name": "LE RELAIS D'ESPARROS",
    "lat": "43.032702",
    "lon": "0.317635",
    "link": "http://www.resto.fr/restaurant/65130-esparros/29123-le-relais-desparros/"
  },
  {
    "name": "LA VIEILLE AUBERGE",
    "lat": "48.5140172",
    "lon": "-2.6678895",
    "link": "http://www.resto.fr/restaurant/22120-hillion/27022-la-vieille-auberge/"
  },
  {
    "name": "AUBERGE DU PONT LA ZORN",
    "lat": "48.710922",
    "lon": "7.800473",
    "link": "http://www.resto.fr/restaurant/67720-weyersheim/7500-auberge-du-pont-la-zorn/"
  },
  {
    "name": "LES JARDINS D'EOLE",
    "lat": "44.8495467",
    "lon": "0.1879118",
    "link": "http://www.resto.fr/restaurant/33220-fougueyrolles/33988-les-jardins-deole/"
  },
  {
    "name": "LA BOUCHE B",
    "lat": "49.1383245",
    "lon": "4.3655842",
    "link": "http://www.resto.fr/restaurant/51400-mourmelon-le-grand/36709-la-bouche-b/"
  },
  {
    "name": "LE CARDAILHAC",
    "lat": "43.5974267",
    "lon": "1.4482552",
    "link": "http://www.resto.fr/restaurant/toulouse/31000-toulouse/67692-le-cardailhac/"
  },
  {
    "name": "CHEZ NANO",
    "lat": "43.7063859",
    "lon": "7.2835956",
    "link": "http://www.resto.fr/restaurant/nice/06000-nice/58556-chez-nano/"
  }
,
  {
    "name": "RESTAURANT HOTEL BEL AIR",
    "lat": "48.852737",
    "lon": "7.629612",
    "link": "http://www.resto.fr/restaurant/67350-uberach/6973-restaurant-hotel-bel-air/"
  },
  {
    "name": "LA RUELLE AUTREMENT",
    "lat": "0.0",
    "lon": "0.0",
    "link": "http://www.resto.fr/restaurant/21000-dijon/49587-la-ruelle-autrement/"
  },
  {
    "name": "BISTRO POULBOT",
    "lat": "48.889379",
    "lon": "2.341427",
    "link": "http://www.resto.fr/restaurant/paris/75018-paris-18eme/3629-bistro-poulbot/"
  },
  {
    "name": "CHANGO MAMBOO",
    "lat": "45.7681179",
    "lon": "4.8458787",
    "link": "http://www.resto.fr/restaurant/lyon/69006-lyon-6eme/68677-chango-mamboo/"
  },
  {
    "name": "TANTE LEONIE",
    "lat": "48.061584",
    "lon": "0.49928",
    "link": "http://www.resto.fr/restaurant/72160-connerre/29841-tante-leonie/"
  },
  {
    "name": "L'AUBERGE DE VILLAC",
    "lat": "45.1853262",
    "lon": "1.2622015",
    "link": "http://www.resto.fr/restaurant/24120-villac/34263-lauberge-de-villac/"
  },
  {
    "name": "BIEN DONG",
    "lat": "46.581201",
    "lon": "0.339056",
    "link": "http://www.resto.fr/restaurant/86000-poitiers/16466-bien-dong/"
  },
  {
    "name": "MARIETTE",
    "lat": "48.8559085",
    "lon": "2.3055759",
    "link": "http://www.resto.fr/restaurant/paris/75007-paris-7eme/69058-mariette/"
  },
  {
    "name": "CHEZ LYDIE",
    "lat": "50.3749612",
    "lon": "3.0662213",
    "link": "http://www.resto.fr/restaurant/59500-douai/71441-chez-lydie/"
  },
  {
    "name": "L'ALIZE",
    "lat": "42.6646164",
    "lon": "2.8852168",
    "link": "http://www.resto.fr/restaurant/perpignan/66100-perpignan/72861-lalize/"
  },
  {
    "name": "A L'ANGE GOURMAND",
    "lat": "49.1187801",
    "lon": "7.0861321",
    "link": "http://www.resto.fr/restaurant/57200-sarreguemines/3-a-lange-gourmand/"
  },
  {
    "name": "COUNTRY BAR",
    "lat": "45.195705",
    "lon": "1.6220129",
    "link": "http://www.resto.fr/restaurant/19360-venarsal/61687-country-bar/"
  },
  {
    "name": "CREPERIE TY JO",
    "lat": "43.7045024",
    "lon": "7.2830423",
    "link": "http://www.resto.fr/restaurant/nice/06000-nice/59072-creperie-ty-jo/"
  },
  {
    "name": "RESTAURANT LES SABOTS",
    "lat": "45.5291291",
    "lon": "3.9171599",
    "link": "http://www.resto.fr/restaurant/63660-saint-antheme/66536-restaurant-les-sabots/"
  },
  {
    "name": "NICOLAS",
    "lat": "43.8378779",
    "lon": "4.3625915",
    "link": "http://www.resto.fr/restaurant/30000-nimes/52710-nicolas/"
  },
  {
    "name": "LA ROSERAIE",
    "lat": "47.783352",
    "lon": "7.316889",
    "link": "http://www.resto.fr/restaurant/68260-kingersheim/8887-la-roseraie/"
  },
  {
    "name": "LA CABANE A MOULES",
    "lat": "43.548616",
    "lon": "3.9917138",
    "link": "http://www.resto.fr/restaurant/34280-carnon-plage/37290-la-cabane-a-moules/"
  },
  {
    "name": "LE TIRE BOUCHON",
    "lat": "48.58051",
    "lon": "7.750615",
    "link": "http://www.resto.fr/restaurant/strasbourg/67000-strasbourg/10122-le-tire-bouchon/"
  }
]