[

  {
    "name": "LE PALAIS ROYAL D'EVRY CHANG",
    "lat": "46.2783629",
    "lon": "6.0335578",
    "link": "http://www.resto.fr/restaurant/91000-evry/41363-le-palais-royal-devry-chang/"
  },
  {
    "name": "LA SAPORITA",
    "lat": "48.864195",
    "lon": "2.369404",
    "link": "http://www.resto.fr/restaurant/paris/75011-paris-11eme/25649-la-saporita/"
  },
  {
    "name": "LE NEW TOKY",
    "lat": "43.8574483",
    "lon": "-0.4251803",
    "link": "http://www.resto.fr/restaurant/40090-laglorieuse/74141-le-new-toky/"
  },
  {
    "name": "BOITE A PIZZAS",
    "lat": "43.6052913",
    "lon": "2.2410075",
    "link": "http://www.resto.fr/restaurant/81100-castres/54305-boite-a-pizzas/"
  },
  {
    "name": "LA CALECHE",
    "lat": "50.5635053",
    "lon": "2.4808599",
    "link": "http://www.resto.fr/restaurant/62190-lillers/5976-la-caleche/"
  },
  {
    "name": "L'AUBERGE FLEURIE",
    "lat": "47.6426755",
    "lon": "6.7914346",
    "link": "http://www.resto.fr/restaurant/70400-chalonvillars/69770-lauberge-fleurie/"
  },
  {
    "name": "APOSTROPHE",
    "lat": "49.8467201",
    "lon": "3.2743371",
    "link": "http://www.resto.fr/restaurant/02100-saint-quentin/74654-apostrophe/"
  },
  {
    "name": "PETIT RESTO",
    "lat": "43.918696",
    "lon": "5.0543445",
    "link": "http://www.resto.fr/restaurant/84800-lisle-sur-la-sorgue/72484-petit-resto/"
  },
  {
    "name": "LE CARDAILHAC",
    "lat": "43.5974267",
    "lon": "1.4482552",
    "link": "http://www.resto.fr/restaurant/toulouse/31000-toulouse/67692-le-cardailhac/"
  },
  {
    "name": "LE 13",
    "lat": "48.836069",
    "lon": "2.346992",
    "link": "http://www.resto.fr/restaurant/paris/75013-paris-13eme/34726-le-13/"
  },
  {
    "name": "DON CAMILLO",
    "lat": "50.4729084",
    "lon": "2.6680767",
    "link": "http://www.resto.fr/restaurant/62290-noeux-les-mines/5966-don-camillo/"
  },
  {
    "name": "LE SAINT COCHON",
    "lat": "45.7528482",
    "lon": "4.8326463",
    "link": "http://www.resto.fr/restaurant/lyon/69002-lyon-2eme/74057-le-saint-cochon/"
  },
  {
    "name": "COTE SUD LOIRE",
    "lat": "47.8925985",
    "lon": "1.9177038",
    "link": "http://www.resto.fr/restaurant/45650-saint-jean-le-blanc/73924-cote-sud-loire/"
  },
  {
    "name": "LES DOUCEURS DE L'OPIUM",
    "lat": "43.5733223",
    "lon": "1.3160741",
    "link": "http://www.resto.fr/restaurant/64420-nousty/75071-les-douceurs-de-lopium/"
  },
  {
    "name": "SESTO SENSO",
    "lat": "48.871024",
    "lon": "2.3529",
    "link": "http://www.resto.fr/restaurant/paris/75010-paris-10eme/24225-sesto-senso/"
  },
  {
    "name": "LA GARRIGUE HAUTE",
    "lat": "44.900711",
    "lon": "1.3033664",
    "link": "http://www.resto.fr/restaurant/24370-prats-de-carlux/34283-la-garrigue-haute/"
  },
  {
    "name": "IL GIARDINO",
    "lat": "43.4795453",
    "lon": "-1.5640505",
    "link": "http://www.resto.fr/restaurant/64200-biarritz/33514-il-giardino/"
  },
  {
    "name": "LE GLOSS",
    "lat": "43.7016652",
    "lon": "7.2760266",
    "link": "http://www.resto.fr/restaurant/nice/06000-nice/72027-le-gloss/"
  }
,
  {
    "name": "MARIETTE",
    "lat": "48.8559085",
    "lon": "2.3055759",
    "link": "http://www.resto.fr/restaurant/paris/75007-paris-7eme/69058-mariette/"
  },
  {
    "name": "LES RECOLLETS",
    "lat": "45.824057",
    "lon": "1.260341",
    "link": "http://www.resto.fr/restaurant/87000-limoges/17653-les-recollets/"
  },
  {
    "name": "EL BARAKA",
    "lat": "44.708355",
    "lon": "4.7654591",
    "link": "http://www.resto.fr/restaurant/26270-loriol-sur-drome/24847-el-baraka/"
  },
  {
    "name": "LE RELAIS DES CHOUANS",
    "lat": "46.9590015",
    "lon": "-0.8924266",
    "link": "http://www.resto.fr/restaurant/79700-saint-aubin-de-baubigne/58996-le-relais-des-chouans/"
  },
  {
    "name": "TY POUPOUNE",
    "lat": "47.4929954",
    "lon": "-3.1224332",
    "link": "http://www.resto.fr/restaurant/56170-quiberon/28580-ty-poupoune/"
  },
  {
    "name": "PIZZA TMA",
    "lat": "49.1631323",
    "lon": "-0.3658546",
    "link": "http://www.resto.fr/restaurant/14000-caen/27344-pizza-tma/"
  },
  {
    "name": "LA TAVERNE DES LAYES",
    "lat": "50.6523471",
    "lon": "2.8375665",
    "link": "http://www.resto.fr/restaurant/62840-fleurbaix/5907-la-taverne-des-layes/"
  },
  {
    "name": "LES PIEDS DANS LE PLAT",
    "lat": "47.995033",
    "lon": "0.20278",
    "link": "http://www.resto.fr/restaurant/le-mans/72000-le-mans/29840-les-pieds-dans-le-plat/"
  },
  {
    "name": "BELLA ITALIA",
    "lat": "50.634539",
    "lon": "3.062202",
    "link": "http://www.resto.fr/restaurant/lille/59000-lille-centre/2649-bella-italia/"
  },
  {
    "name": "RESTAURANT LES ROCAILLES",
    "lat": "46.0330735",
    "lon": "6.4281898",
    "link": "http://www.resto.fr/restaurant/74130-brizon/44186-restaurant-les-rocailles/"
  },
  {
    "name": "LES VALLONS - DOMAINE LE PILLEBOIS",
    "lat": "46.337407",
    "lon": "5.130528",
    "link": "http://www.resto.fr/restaurant/01340-montrevel-en-bresse/11779-les-vallons-domaine-le-pillebois/"
  },
  {
    "name": "AUBERGE & BAR A BIERES  DE LA BILLEBAUDE <!--- AUBERGE ET ---> <!--- AUBERGE AND --->",
    "lat": "46.7816508",
    "lon": "4.7478426",
    "link": "http://www.resto.fr/restaurant/71640-givry-71/35458-auberge-bar-a-bieres-de-la-billebaude/"
  },
  {
    "name": "LE GRILL OCEAN",
    "lat": "45.516894",
    "lon": "-1.1260326",
    "link": "http://www.resto.fr/restaurant/33780-soulac-sur-mer/15024-le-grill-ocean/"
  },
  {
    "name": "LE PETIT CORNEBICHE",
    "lat": "48.412247",
    "lon": "2.565214",
    "link": "http://www.resto.fr/restaurant/77630-arbonne-la-foret/20383-le-petit-cornebiche/"
  },
  {
    "name": "L'OLIVEN",
    "lat": "45.7794062",
    "lon": "3.0839522",
    "link": "http://www.resto.fr/restaurant/63000-clermont-ferrand/17832-loliven/"
  },
  {
    "name": "PIZZERIA LA DETENTE",
    "lat": "43.9658446",
    "lon": "3.8541618",
    "link": "http://www.resto.fr/restaurant/30170-saint-hippolyte-du-fort/56136-pizzeria-la-detente/"
  },
  {
    "name": "CHEZ TXOTX CIDRERIE",
    "lat": "43.481738",
    "lon": "-1.5547089",
    "link": "http://www.resto.fr/restaurant/64200-biarritz/33545-chez-txotx-cidrerie/"
  },
  {
    "name": "CHEZ PHILIPPE",
    "lat": "0.0",
    "lon": "0.0",
    "link": "http://www.resto.fr/restaurant/06590-theoule-sur-mer/31341-chez-philippe/"
  }
]